{
  "offices": [


    {
      "address": "No. 3, RMZ Infinity – Tower E\nOld Madras Road\n4th and 5th Floors\nBangalore, 560 016, India",
      "id": "bangalore",
      "image": "https://lh3.googleusercontent.com/YDyQevoY-D0eZQ9sYHp8dQjpFF5JpLfLK-0OM-uJK1oNK3_LRnGJAM0uXi9qb9UigKnVIIXlIgidxhRlnaB_FPtUOqPzrsCSiFZyoQ",
      "lat": 12.99332,
      "lng": 77.660176,
      "name": "Bangalore",
      "phone": "+91-80-67218000",
      "region": "asia-pacific"
    },
    {
      "address": "57 Park Ventures Ecoplex\n14th Floor, Wireless Road\nBangkok, 10330, Thailand",
      "id": "bangkok",
      "image": "https://lh3.googleusercontent.com/nh9uOUPj6iWjKZSHIrnkfGhIWGBb8thguRM5_ehCOkyF-qfwzYciDJFVRSvQ6QxlSA6eZUMkzgdW9zR0Gab2ZZPg8NlB7V_V3wB5",
      "lat": 13.742866,
      "lng": 100.547983,
      "name": "Bangkok",
      "phone": "",
      "region": "asia-pacific"
    },
    {
      "address": "6th Floor, Tower B, Raycom InfoTech Park\nNo. 2 Kexueyuan South Road\nZhongguancun Beijing 100190",
      "id": "beijing",
      "image": "https://lh3.googleusercontent.com/v_tD3VvC8-dnhqSF9xhj5Hx7F_bb3-wieM19i-Ho2C3by6mt7-JpPc7KsYVHUZFqQl5ON3adVEV1N4OlzSvHLrr3sr4GtXErDbGC",
      "lat": 39.9848878,
      "lng": 116.3265708,
      "name": "Beijing",
      "phone": "+86-10-62503000",
      "region": "asia-pacific"
    },











    {
      "address": "Taikoo Hui Tower 1, No.383 Tianhe Road\nGuangzhou, 510620\nChina",
      "id": "guangzhou",
      "image": "https://lh3.googleusercontent.com/BjYQfVMor1QT5hAkc7DcN6_MJdwaySHY6VJ6IY7mQGJRdXjFZhiP-t4MV_QUbp0tBeuYvuMw3nUetTiI-vFl6-BcialJhhurhFrDVeY",
      "lat": 23.1339728,
      "lng": 113.3332488,
      "name": "Guangzhou",
      "phone": "",
      "region": "asia-pacific"
    },
    {
      "address": "Sector 15, Part II Village Silokhera\nGurgaon 122001\nIndia",
      "id": "gurgaon",
      "image": "https://lh3.googleusercontent.com/8plKBiWKmwllCXePad0JJ22u1GG7Qe1hveXlx_xJ87XoiQpclQubwxyGxcDU6tkatpb3oi9MYXjm2XszFi5kGn1flfTtjv6MycBWrQ",
      "lat": 28.460581,
      "lng": 77.048194,
      "name": "Gurgaon",
      "phone": "+91-12-44512900",
      "region": "asia-pacific"
    },
    {
      "address": "Building 30\nMATAM, Advanced Technology Centre\nHaifa, 3190500\nIsrael ",
      "id": "haifa",
      "image": "https://lh3.googleusercontent.com/syKfT9cVMzLi0d4_DSiJztWGwcmWct6IEbpAApEFk_G8ym0xyLLxMBT484zROIOZHMSe9N1o-QQrCAqVWfKRSY6EOeJY9Qa1ftwb",
      "lat": 32.78897,
      "lng": 34.958432,
      "name": "Haifa",
      "phone": "+972-74-746-6245",
      "region": "africa-middle-east"
    },
    {
      "address": "ABC-Strasse 19\n20354 Hamburg\nGermany",
      "id": "hamburg",
      "image": "https://lh3.googleusercontent.com/66R0svr2--6zNOnrqf6JbeZ-bF39bRfHpExjcTlE_AIlPEPk8jO1LjF39FUbDnJB1gh_FiRFX6aCRg4ACjYRbDqb5lf9PdV6qY4S",
      "lat": 53.553752,
      "lng": 9.986229,
      "name": "Hamburg",
      "phone": "49 40-80-81-79-000",
      "region": "europe"
    },
    {
      "address": "1 Matheson Street\nCauseway Bay, Hong Kong",
      "id": "hong-kong",
      "image": "https://lh3.googleusercontent.com/-Ult8_R6TfQAk16CfjSfl6PLypQBYohUjNjE6xeeektZsrP8XwTv7PnVVE-5Ueh3I-2hPnAdRGg6XrMn9IwI7W1h5LJKtlMVe93Wfw",
      "lat": 22.278203,
      "lng": 114.18176,
      "name": "Hong Kong",
      "phone": "+852-3923-5400",
      "region": "asia-pacific"
    },
    {
      "address": "Survey No. 13, DivyaSree Omega\nKondapur Village\nHyderabad, Telangana 500084\nIndia",
      "id": "hyderabad",
      "image": "https://lh3.googleusercontent.com/LAEnc0tzA-JSb5XM5oct5paX98QK9zh_aqa_qKcjAoXo2MChgOjdj_EZpgIZsVAvEY-I0bmMmhCBb5gkoVN4ebqCG9ZfjCbo_stJaw",
      "lat": 17.458461,
      "lng": 78.372452,
      "name": "Hyderabad",
      "phone": "+91-40-6619-3000",
      "region": "asia-pacific"
    },
    {
      "address": "19510 Jamboree Road\nIrvine, CA 92612\nUnited States",
      "id": "irvine",
      "image": "https://lh3.googleusercontent.com/LWGkhXkRRzWnMlNy_Ps74-VTxB2ISXK0Kkick1SujTLYvNAUqo9_HR7SILSZZsiaiGWsXtx7dR5Hz9Q5psu1MWP9BHtDuGYc_hz_eg",
      "lat": 33.658792,
      "lng": -117.859322,
      "name": "Irvine",
      "phone": "+1 949-794-1600",
      "region": "north-america"
    },
    {
      "address": "Eski Buyukdere Caddesi No: 209\n34394\nIstanbul, Turkey",
      "id": "istanbul",
      "image": "https://lh3.googleusercontent.com/_mdN7z1Q-9fKgpHTb1rQJosllxqn7glRJ_G2enX4WPmImuJjLHKw-JBZ8z5B9vMSo12SexGBOD1i2NHXqEy4OaOJekn0g3Fp3bDk_Q",
      "lat": 41.081697,
      "lng": 29.00859,
      "name": "Istanbul",
      "phone": "",
      "region": "africa-middle-east"
    },
    {
      "address": "Pacific Century Place Tower Level 45 SCBD Lot 10,\nJl. Jend. Sudirman No.53,\nRT.5/RW.3, Senayan, Kby. Baru,\nKota Jakarta Selatan,\nDaerah Khusus Ibukota Jakarta 12190, \nIndonesia",
      "id": "jakarta",
      "image": "https://lh3.googleusercontent.com/JEaMUfOUq6bxN7jeIN1z2me5-JvlLRkrFJgf_A0GvqtOquU6Tfjg0ecKeR_Ck27L0S1zC2t_4I6nVP6pBdBtSKst7tkJEoC7LyYq",
      "lat": -6.227664,
      "lng": 106.808471,
      "name": "Jakarta",
      "phone": "",
      "region": "asia-pacific"
    },

    {
      "address": "1253 McGill College Avenue\nMontreal, QC H3B 2Y5\nCanada",
      "id": "montreal",
      "image": "https://lh3.googleusercontent.com/S310Um4pKym8bvHQcQmJLc4ohURWEq3AQHjJ-b5aMY-TpA9P4LCKcxGEg4fik-zSL6MrtiEi8Qt3JbAZl8x-GiI31wfm_myGfb3manQ",
      "lat": 45.50191,
      "lng": -73.570365,
      "name": "Montreal",
      "phone": "514-670-8700",
      "region": "north-america"
    },
    {
      "address": "7 Balchug St\nMoscow 115035\nRussia",
      "id": "moscow",
      "image": "https://lh3.googleusercontent.com/i6cwRxcix3LUdviTVKoLG2Ep6q9pjfPIX_nrge-YkgjIvTgCH5QQpSI6wCpKvg0HiH56lHu6K8eAkCrPZUCzspS6Y9K19U47xr4hww",
      "lat": 55.746747,
      "lng": 37.626435,
      "name": "Moscow",
      "phone": "+7-495-644-1400",
      "region": "europe"
    },
    {
      "address": "1600 Amphitheatre Parkway\nMountain View, CA 94043\nUnited States",
      "id": "mountain-view",
      "image": "https://lh3.googleusercontent.com/Mh8P8gvVwO7NOXfg8anxwPXRy5oKZJ6Cz_LbFfOVdeIsdDfogmMcMsiW7HD7HD2NOINzAPH_v8dALWSuDiiTjCjRnenI7B3l6Pg4yw",
      "lat": 37.421512,
      "lng": -122.084101,
      "name": "Mountain View",
      "phone": "",
      "region": "north-america"
    },
    {
      "address": "3 North Avenue\nMaker Maxity, Bandra Kurla Complex\nBandra East\nMumbai, Maharashtra 400051\nIndia",
      "id": "mumbai",
      "image": "https://lh3.googleusercontent.com/twldrlVORn84fYsOLwNLabfRPQYX-dJAzJtpam-Ea4D7QIY1pvMa9FCMbpjUFA8uniBg6XAh8pMijf9qnjmEm4d17UFkwRGToiv5Ug",
      "lat": 19.054364,
      "lng": 72.850591,
      "name": "Mumbai",
      "phone": "+91-22-6611-7150",
      "region": "asia-pacific"
    },


    {
      "address": "Gen. Jozefa Bema nr 2\n50-265 Wroclaw\nPoland",
      "id": "wroclaw",
      "image": "https://lh3.googleusercontent.com/Or6dY4MCUCbMnDv4kG8J7u-QTsWhvbqbAbMN9Vp38aJAS7ec7A39gYddcEGbrwd_veFeZo2phypqc1ABk20PZ9jCVxZfuNGYS7j3LDc",
      "lat": 51.117687,
      "lng": 17.041737,
      "name": "Wroclaw",
      "phone": "+48 (71) 73 41 000",
      "region": "europe"
    },
    {
      "address": "Brandschenkestrasse 110\n8002 Zürich\nSwitzerland",
      "id": "zurich",
      "image": "https://lh3.googleusercontent.com/kmEsDEYzbMlluwDPYkeEEBpAvL9MJbXZR3hD3uettOqE8T7lbXvV508j4d4QngB7iwYZa8YYlXiVnGWfZ4ZvTJbputGXsfxrLGhD3tI",
      "lat": 47.365063,
      "lng": 8.524425,
      "name": "Zurich",
      "phone": "+41 44 668 18 00",
      "region": "europe"
    }
  ],
  "regions": [
    {
      "coords": {
        "lat": 2.9660291,
        "lng": 1.3271339
      },
      "id": "africa-middle-east",
      "name": "Africa & Middle East",
      "zoom": 3
    },
    {
      "coords": {
        "lat": 0.0524811,
        "lng": 127.6560787
      },
      "id": "asia-pacific",
      "name": "Asia Pacific",
      "zoom": 3
    },
    {
      "coords": {
        "lat": 46.1352815,
        "lng": 7.4033438
      },
      "id": "europe",
      "name": "Europe",
      "zoom": 4
    },
    {
      "coords": {
        "lat": -17.5554497,
        "lng": -99.2316195
      },
      "id": "latin-america",
      "name": "Latin America",
      "zoom": 3
    },
    {
      "coords": {
        "lat": 45.7128252,
        "lng": -97.1547448
      },
      "id": "north-america",
      "name": "North America",
      "zoom": 4
    }
  ]
}